stop_id,stop_name,stop_lat,stop_lon
325005015,Cinematograful „Patria”,47.026385, 28.829697
325005020,Universitatea Tehnică,47.0312278,28.8227457
325005035,Universitatea de Stat de Medicină și Farmacie,47.0343895,28.8179857
325005049,Piaţa Dimitrie Cantemir,47.0381774,28.8099481
325005092,str. Armenească,47.0202032,28.8392228
376339075,str. Ciuflea,47.0124314,28.8459592
376339155,Teatrul M. Eminescu,47.022262,28.835893
376339157,Piața Mării Adunări Naționale,47.0231458,28.834813
376339175,Parcul „La Izvor“,47.0446114,28.7884948
376339178,Parcul „La Izvor“,47.0442382,28.7887317
376339274,str. Armenească,47.0195775,28.8397255
376339276,Teatrul Național de Operă și Balet „Maria Bieșu”,47.0268063,28.8293435
376339305,str. Toma Ciorbă,47.031662, 28.821839
376339327,Asociația "Zorile",47.0390804,28.8035038
376339405,Universitatea de Stat de Medicină și Farmacie,47.033481, 28.819179
461062053,Piața Dmitrie Cantemir,47.0379329,28.810016
461062058,Bariera Sculeni,47.0428973,28.7941984
461062059,str. Ghidighici,47.0461749,28.7832239
461062061,str. Serghei Lazo,47.0289503,28.8257194
633621362,str. 31 August 1989,47.0155197,28.8409445
1482712252,str. Ghidighici,47.0452826,28.7850345
4574932023,Restaurantul "Butoiaş",47.048520, 28.778311
4884310091,UNIC,47.0163961,28.8448429
6531479351,Bariera Sculeni,47.042243, 28.794668
325004946,str. Gh. Asachi,47.001116,28.8219818
325004949,str. Gh. Tudor,47.003521,28.824314
325005191,str. Gheorghe Tudor,47.004913,28.8213058
370413213,str. Ion Dumeniuc,47.0561356,28.8908454
370413215,str. Ion Dumeniuc,47.0569726,28.8917057
370413235,str. Igor Vieru,47.0504495,28.8900272
370413258,bd. Mircea cel Bătrân,47.0373205,28.8899577
376339068,Complexul Memorial "Eternitate",47.0083224,28.8328181
376339071,Complexul Memorial "Eternitate",47.0086922,28.8336637
376339076,str. București,47.0124666,28.8405442
376339079,str. București,47.0122535,28.8406029
376339108,A. Mateevici,47.0092827,28.8362401
376339135,Calea Basarabiei,47.0224474,28.8594908
376339136,Calea Basarabiei,47.022765,28.8603874
376339139,Strada Alexandru Hâjdeu,47.0204126,28.8529655
376339140,Mihai Kogălniceanu,47.0104305,28.8378404
376339208,Şcoala Medie pe Schimburi nr. 3,47.0024468,28.8904762
376339210,Asociația "Beton Armat",47.0051772,28.8870378
376339213,Asociația "Agromașina",47.0086455,28.8802687
376339215,Asociația "Agromașina",47.0096376,28.8785616
376339221,Şcoala Medie pe Schimburi nr. 3,46.9989681,28.8953611
376339222,Asociaţia "Efes-Vitanta",46.9985099,28.896488
376339225,Asociaţia "Cerealiere",47.0181662,28.8704309
376339226,Asociaţia "Cerialiere",47.0180956,28.8708503
376339230,Asociaţia "Tutun-CTC",47.0223274,28.8671697
376339233,Keramin,47.0121854,28.8763751
376339234,Keramin,47.0116154,28.8765952
376339237,Centrul Comercial "Progres",47.0148863,28.8737847
376339239,Centrul Comercial "Progres",47.0147515,28.8736119
376339282,bd. Dimitrie Cantemir,47.0191626,28.8502343
376339308,str. Vadul lui Vodă,47.0327087,28.8897008
376339341,Uzina de frigidere,47.0126688,28.8875133
376339347,Centrul Comercial "Supraten",47.0206744,28.8884278
376339381,Pan Halippa,47.0080506,28.8303398
376339384,Piaţa Pan Halippa,47.007384,28.8281823
376339396,str. Voluntarilor,47.0114764,28.8881026
376339398,Asociaţia "Introscop",47.0129643,28.8864942
376339418,Parcul de Troleibuze nr.3,47.0247992,28.887735
376339419,str. Vadul lui Vodă,47.032466,28.8886242
376339422,str. Dokuciaev,47.0025608,28.8181365
376339423,Otovasca,47.0069649,28.8933115
376339441,Judecătoria sectorului Ciocana,47.0472054,28.8908978
376339462,str. Movileni,47.0019783,28.8958751
376339467,Supraten,47.0201152,28.8870976
376339469,Uzina "MoldovaHidro-Maș",47.0153669,28.8865764
376339471,str. Movileni,47.0024983,28.8957852
376339473,CET-2,47.027858,28.8891963
376339487,Parcul de Troleibuze nr.3,47.0246226,28.8888114
461612428,Bd. Ștefan cel Mare și Sfânt,47.0163267,28.8461198
633621366,Gara de Nord,47.0232259,28.8639933
633630323,str. Ginta Latină,47.0378918,28.8893437
633630325,str. Petru Zadnipru,47.0430106,28.8898419
633630328,Petru Zadnipru,47.0438114,28.8907301
633630330,Str. Igor Vieru,47.0517895,28.8909312
633689763,Asociaţia "Moldovahidromaş",47.0157316,28.8877926
1032276238,Magazin "Fidesco",47.0064518,28.8249976
1216583421,Otovasca,47.0080606,28.892488
1216583454,Pretura sectorului Ciocana,47.0406309,28.890406
1216583516,Bulevardul Ștefan cel Mare și Sfânt,47.0152582,28.8448887
4110348292,Magazinul Budesti,47.0468347,28.89018
4563611318,Asociația "Beton Armat",47.0045905,28.8869455
4566489112,Asociaţia "Efes-Vitanta",46.9984663,28.8962028
325004929,str. Miorița,46.996973,28.808967
325004932,Campusul Academic,46.993722,28.8150109
325004934,Colegiul de Construcții,46.9931771,28.8201395
325004940,str. V. Korolenko,46.9980181,28.8203898
325004954,Piaţa Pan Halippa,47.0089282,28.8278221
325004957,Piaţa Pan Halippa,47.0084584,28.8273085
325004979,Universitatea de Stat,47.0183652,28.8230148
325004984,str. Mihail Kogalniceanu,47.019008,28.827368
325005059,Piața Unirii Principatelor,47.0279938,28.7910786
325005062,Piaţa Unirii Principatelor,47.0287199,28.7891559
325005065,str. Doina și Ion Aldea-Teodorovici,47.0282921,28.7962046
325005073,str. Ion Creangă,47.0281582,28.796342
325005077,Vasile Lupu,47.0218326,28.8049124
325005089,str. Eugen Coca,47.0222971,28.8087679
325005186,str. Dokuceaev,47.0028774,28.816803
325005189,Telecentru,46.999051,28.8087899
376339107,str. Mihai Eminescu,47.015483,28.8264898
376339143,str. A. Pușkin,47.0213645,28.8286776
376339147,str. Anton Crihan,47.0128935,28.8279157
376339163,str. Serghei Lazo,47.02694,28.8203039
376339182,str. P. Ceaikovski,47.0269324,28.802748
376339186,șos. Balcani,47.040978,28.7641734
376339188,șos. Balcani,47.0416839,28.7633017
376339241,V. Belinskii,47.0295265,28.8018086
376339243,str. Ion Creangă,47.0298089,28.802048
376339250,str. Eugen Coca,47.0221449,28.8098131
445347712,str. Liviu Deleanu,47.0381887,28.7698943
445347713,str. Liviu Deleanu,47.0394678,28.7677732
462242807,Universitatea de Arte,47.0236398,28.8179673
463180464,str. Paris,47.0318639,28.7827047
463180465,str. Paris,47.0326835,28.7816851
463180466,str. Ion Pelivan,47.0296173,28.7879603
463180467,str. Onisifor Ghibu,47.034988,28.7764833
463180468,str. Onisifor Ghibu,47.0356865,28.775585
1559024579,str. C. Stere,47.0250241,28.8165109
1655985132,str. Nicolae Iorga,47.0237452,28.825065
2616042623,str. P. Ceaikovski,47.0256967,28.8027519
3808044972,V. Belinski,47.0222077,28.803847
376339542,Schinoasa-1,46.995716,28.8009761
376339544,Sihastrului,46.9964113,28.8014944
376339546,Ialoveni,46.994425,28.796484
376339577,Scinoasa,46.984960, 28.778144
376339581,Gara Auto de Sud-Vest,46.9918108,28.7892109
376339583,str. Pietrarilor,46.9982602,28.8066396
376339585,Gara Auto de Sud-Vest,46.991627,28.789390
502443841,Moldpresa,46.9520472,28.7715616
746334620,Spitalul Raional Ialoveni,46.9480544,28.7738056
1251179066,strada Alexandru cel Bun,46.9689181,28.7661414
1274046327,CTAS Ialoveni,46.9588543,28.7684459
1484644406,str. Valea Radiului.,46.9873658,28.7805635
4563611295,Schinoasa,46.985077, 28.777884
4563632529,Ialoveni,46.9936426,28.7949467
4574874150,Ialoveni,46.9442527,28.7766145
4574874151,Ialoveni,46.944196, 28.776360
4574874153,Spitalul Raional Ialoveni,46.9481185,28.7740095
4574874155,Moldpresa,46.9518766,28.7712226
4574874156,Iachira,46.9549612,28.7695415
4574874159,CTAS Ialoveni,46.9588003,28.7681206
4574874161,strada Alexandru cel Bun,46.9687945,28.7666237
325004990,str. 31 August 1989,47.0225088,28.8295459
325005105,Gara Feroviara,47.0110807,28.8582041
325005107,Gara Feroviara,47.0111314,28.8586766
340052760,Grădina Publică,47.0244375,28.8291614
340053722,Bulevardul Constantin Negruzzi,47.0136719,28.8538448
376339245,str. Dimineții,47.0049378,28.8674495
376339247,str. Muncești,47.0094149,28.8615212
376339258,str. Paul Gore,46.9858479,28.8912688
376339260,str. Paul Gore,46.985244,28.8923432
376339262,str. Tomiș,46.9931871,28.8799737
376339264,Asociaţia "Carmez",46.9911538,28.883385
376339266,str. Căuşeni,46.9977852,28.8749422
376339268,str. Căușeni,46.9974987,28.8749532
376339270,str. Dimineții,47.0055724,28.8672402
376339286,Podul de Flori,46.982502,28.8972049
1048600352,Soseaua Muncesti,46.9418671,28.9425979
1048600924,Soseaua Muncesti,46.9413526,28.9430523
1207327539,bd. Negruzzi,47.0135611,28.8505075
1482712250,Parcul de Troleibuze nr. 2,46.9886079,28.8859487
1837662770,sos. Muncești 426,46.9788395,28.9037741
3656734117,Sângera,46.919572, 28.971901
4100959489,str. Minsk,47.0027781,28.8693152
4563504809,Asociaţia "Carmez",46.9905633,28.8835706
4563504812,Pandurilor,46.9994013,28.8726835
4563504821,str. Pandurilor,46.9993041,28.8730668
4563504826,Parcul de Troleibuze nr. 2,46.9887133,28.8866521
4572917744,Drumul spre Aerogara,46.949119, 28.931358
4572917745,Drumul spre Aerogara,46.9491755,28.9315751
4572917747,Șoseaua Muncești,46.9386812,28.9481175
4574620984,Asociaţia de producţie,46.9125238,28.9719526
4574620986,Primăria Sângera,46.917080, 28.973596
4574620987,Primăria Sângera,46.9170474,28.9734511
4889292449,UNIC,47.0168053,28.8438959
5593186221,Strada Băcioii Noi,46.9565782,28.9257141
5593186222,Strada Băcioii Noi,46.9572552,28.9256051
5637155022,s. Bîc,46.9698677,28.9134918
5637162121,s. Bîc,46.9690679,28.9136166
5637283322,str. Grădina Botanică,46.981586,28.8980953
280924752,str. Studenților,47.0584639,28.8675067
325004999,Bd. Ștefan cel Mare și Sfânt,47.0243474,28.8349551
340052764,str. Alecu Russo,47.0432207,28.8607499
340052765,str. Miron Costin,47.0498674,28.8636871
340052766,str. Miron Costin,47.0491288,28.8630222
340052767,str. Studenților,47.058686, 28.866616
340052768,Circul,47.036029,28.8494001
340052769,Circ,47.036606,28.849799
340052772,bd. Grigore Vieru,47.0287792,28.8388897
340052773,str. Columna,47.0274523,28.8335423
340052774,str. Kiev,47.0402243,28.8599565
340052775,str. Alecu Russo,47.0454792,28.8620731
376339180,Parcul Alunelul,47.0381188,28.8052532
376339280,str. Eugen Doga,47.0294757,28.8390869
376339320,str. Kiev,47.039707,28.8593514
461604330,str. Romană,47.032016,28.8427908
461604331,str. Romană,47.0323655,28.8442191
461604333,str. Matei Basarab,47.0549227,28.8651157
461604334,str. Matei Basarab,47.0554695,28.8658568
4563611309,Restaurantul "Butoiaş",47.0478127,28.7785008
325004987,Casa Presei,47.0213214,28.8306802
325005137,Strada Independenței,46.9814212,28.8499512
325005156,str. Costiujeni,46.9827898,28.8369193
325005170,Spitalul pentru copii nr.3,46.9861614,28.8318
325005177,Spitalul Oncologic,46.9900157,28.8255463
376339072,str. Ciuflea,47.0135272,28.8471549
376339127,Spitalul Clinic Municipal nr.1,47.0053984,28.8417466
376339128,Piața Ovidiu,47.0106495,28.8428603
450993217,Bd. Traian,46.9854534,28.8561658
1216583430,Str. Teilor,46.9881816,28.8539442
1216583441,Hristo Botev,46.99315,28.8472483
1363586642,str. Grenoble,46.9786957,28.8456093
4575190856,str. Petru Ungureanu,46.9815223,28.8396855
325004996,str. București,47.0221766,28.8259731
340052776,str. Nicolae Dimo,47.0431908,28.8673308
461604332,str. Alecu Russo,47.0441294,28.8626332
527885215,str. Mihail Sadoveanu,47.0381312,28.8845789
1554651685,str. Nicolae Dimo,47.0436294,28.8661533
1554651691,Bogdan Voievod,47.0441788,28.8597773
1723817019,str. Alecu Russo,47.0372194,28.887358
3856161595,str. Mihail Sadoveanu,47.0384098,28.8847033
3861263969,Meşterul Manole,47.0365479,28.8882772
4566499748,Tipografia centrală,47.0425074,28.8530971
376339379,str. Ismail,47.0166431,28.8474454
633621369,Gara de Nord,47.0230406,28.8640608
325005110,str. N. Titulescu,46.9999508,28.8598097
325005112,str. N. Titulescu,47.000739,28.8601763
325005114,Piața Decebal,46.9969099,28.859467
345324570,Valea Crucii,46.9767065,28.8703912
376339089,Centrul Comercial "Arizona",46.9780246,28.8645225
376339091,Centrul Comercial "Arizona",46.9780905,28.8635457
376339093,bd. Cuza Vodă,46.9787715,28.8548617
376339095,Sala de Ceremonii „Cvin“,46.9772038,28.8592294
376339099,Supermarket „Cvin“,46.9772778,28.8584234
376339111,Bulevardul Traian,46.9811142,28.8511599
376339112,Bulevardul Traian,46.9821988,28.8500624
376339115,Strada Teilor,46.9832692,28.8480799
376339116,str. Teilor,46.9840073,28.8475599
376339120,str. Independenței,46.9854543,28.8450518
376339167,Spitalul Militar,47.0221922,28.7996077
376339255,str. Constituției,47.0244211,28.7926284
376339343,str. Fulgulești,46.9934312,28.8520295
376339370,Colegiul de Muzică "Ștefan Neaga",46.9899098,28.8452534
376339414,Piața Decebal,46.9981676,28.8578176
461612421,str. Zelinschi,46.9929352,28.8583066
461612426,bd. Dacia,46.9939239,28.8475395
652049976,Valea Crucii,46.9773366,28.8705331
890891304,Parcul "Valea Trandafirilor",46.9986343,28.8516217
1163335402,Hidrotehnica,47.0075235,28.8600921
1218066888,Colegiul de Muzică "Ștefan Neaga",46.9894578,28.8454002
1218066892,bd. Dacia,46.992764,28.8460848
1218066914,str. Hristo Botev,46.9870316,28.844881
1288238644,Palatul de Cultură al Feroviarilor,47.0082643,28.8598838
2616121534,Grădina botanică,46.9748594,28.8750339
3808045057,V. Belinski,47.0219013,28.8034071
4563450967,Cuza Vodă,46.9780603,28.8555928
4563450981,str. Gheorghe Codreanu,47.0229535,28.795135
4563451500,str. Trandafirilor,46.9960396,28.8466416
376339067,str. Socoleni,47.0621768,28.8458975
376339324,str. Calea Orheiului,47.0542585,28.8498929
1035241557,str. Socoleni,47.0613022,28.8460111
1209486292,str. Iazului,47.0575091,28.8477965
1211607992,str. Ceucari,47.0551428,28.8496256
1211611471,str. Iazului,47.0580755,28.8477516
1211614943,str. Vasile Badiu,47.0510337,28.8500667
1211616127,str. Vasile Badiu,47.0516229,28.850732
1557395456,str. Florilor,47.0436246,28.852523
1557395459,str. Calea Orheiului,47.046181,28.8488458
1557395464,bd. Renașterii Naționale,47.0466317,28.8485801
1557396061,Liceul "George Călinescu",47.065218,28.8444294
1557396084,Liceul "George Călinescu",47.0653801,28.8439748
1844942249,str. Bogdan Voievod,47.043221,28.8560557
376339323,str. Kiev,47.038717, 28.858116
376339350,Dumitru Rîşcanu,47.0355636,28.8617721
376339351,Florării,47.0309278,28.8635815
376339355,Dumitru Rîşcanu,47.0351231,28.8622037
1836506522,str. Tudor Vladimirescu,47.0385793,28.8580075
2144170985,Florării,47.0315634,28.8631485
4563611331,Asociaţia "Tutun-CTC",47.0221375,28.867647
376339159,Universitatea de Stat de Medicină și Farmacie,47.0340215,28.8192612
376339333,Vasile Harea,47.0592303,28.81137
376339335,Substaţia de Tracţiune nr. 55,47.055151,28.8160125
376339354,Mihai Viteazul,47.0443288,28.8322389
376339403,str. Columna,47.0362593,28.8226288
449672992,str. Petricani 88,47.044321,28.832695
613009714,str. Albișoara,47.0382456,28.8256815
694216625,str. Gara "Vesterniceni",47.0409989,28.8426189
1558994726,Universitatea Agrară,47.0607336,28.8098276
1558999573,Bd. Renașterii Naționale,47.0446015,28.8479992
1836461036,Baza de Transport Auto nr. 31,47.0477052,28.8265211
2635477677,DECORELLI,47.042694,28.8356669
4566862199,Mitropolia,47.0293442,28.8171514
4566862202,Petricani,47.049920, 28.822218
1196766269,str. Ion Creangă,47.0920501,28.8699641
1196766287,str. Dumitru Matcovschi,47.0941295,28.8693656
1196766289,str. Constructorilor,47.0886119,28.8710119
1196766302,str. Păcii,47.0912542,28.8637082
1784926825,str. Socoleni,47.0622885,28.8552424
4566976651,str. Socoleni,47.061724, 28.854579
5906701499,str. Grătiești,47.0891128,28.8684333
5906701502,str. Grătiești,47.0894464,28.8684389
5906701504,str. Constructorilor,47.0885173,28.8721337
5906701506,str. Vasile Alecsandri,47.092259, 28.871306
5906719413,str. Păcii,47.0912621,28.8663551
325005120,str. Sarmizegetusa,46.9932625,28.8651937
340053720,bd. Dimitrie Cantemir,47.0189164,28.8516557
376339217,str. Minsk,46.9968141,28.8616505
376339304,Hotel Cosmos,47.0145921,28.8548825
464512110,Asociaţia "Franzeluţa",46.9835425,28.8778861
1258789424,str. Butucului,46.9907753,28.8676891
1484644401,Colegiul de Transport,46.987022,28.8730369
4566693255,Uzina "Etalon",46.9855083,28.8817662
325005039,Universitatea Pedagogică de Stat „Ion Creangă“,47.0371529,28.8121895
325005042,Universitatea Pedagogică de Stat „Ion Creangă“,47.0371021,28.8116957
325005081,str. Ștefan Neaga,47.0325536,28.8052341
325005084,str. Ștefan Neaga,47.032428,28.8054233
1558999576,str. Calea Orheiului,47.0447877,28.8477432
376339170,Vasile Lupu,47.0235287,28.7907998
376339171,Vasile Lupu,47.0234849,28.7897652
376339254,str. Constituției,47.0256077,28.7927042
376339463,Clinica Veterinară Republicană,47.0249867,28.7820573
376339490,Clinica Veterinară Republicană,47.0247505,28.7824549
376339533,Uzina Mecanică Experimentală,47.0255663,28.7792937
376339536,Uzina Experimentală,47.0256747,28.7778274
461612419,str. Zelinski,46.9927094,28.8595954
2398208056,Uzina chimică,47.0266486,28.7736304
376339219,Asociatia "Vitanta",46.9967548,28.8997748
652050231,str. Industrială,46.9949938,28.905795
652050233,str. Industrială,46.9949238,28.9053127
1216583531,Asociatia "Vitanta",46.9972795,28.8988994
6416154914,Terminus,46.9842415,28.9379293
6416154915,Terminus,46.9840914,28.9379024
376339496,str. Sfânta Vineri,46.9974728,28.7838359
376339537,Str. Cartușa,47.0158647,28.7480661
376339573,Academia de Administrare Publică,47.0013201,28.7773954
376339575,str. M. Lermontov,47.000327,28.7797425
2398208058,Primăria Durleşti,47.0187387,28.7653803
2398208061,Testemiţanu,47.018799,28.7558478
2398208080,str. Caucaz,47.0061544,28.7664828
2398208084,Str. Nicolae Dimo 2,47.0130805,28.7556573
2398208112,Str. Nicolae Dimo 27,47.0093187,28.7623952
4568532112,Cişmelelor,47.0216953,28.7676093
325005194,Bd. Cuza Vodă,46.983496,28.8615119
325005196,bd. Cuza Vodă,46.9824187,28.8623498
325005197,Str. Burebista,46.9791746,28.8675759
325005200,Str. Independenței,46.9790222,28.8669898
372466319,str. Teilor,46.9897664,28.8529137
376339084,Metro 2,46.9642484,28.890468
376339087,Metro 2,46.9649733,28.8901487
376339119,Cartierul „Galata“,46.9417627,28.9263316
376339123,str. Bacioii Noi,46.9495358,28.9140064
376339124,Cartierul „Galata“,46.9421236,28.9264238
376339131,str. Bacioii Noi,46.9503228,28.9133935
450993216,Bd. Dacia,46.9854249,28.8580556
461612416,Bd. Dacia.,46.9872003,28.85643
559725618,str. Aeroport,46.9385447,28.9331728
1068789753,str. Aeroport,46.9379672,28.9325745
1216583462,Spitalul Clinic Municipal nr.1,47.0049971,28.8420937
1216583538,Zelinski,46.9924852,28.8490534
4572932338,Aerogara,46.9353547,28.9355033
325005116,str. Zelinski,46.9924216,28.8588139
325005118,str. Zelinski,46.9937651,28.8593968
325005123,bd. Decebal,46.9875061,28.8578964
325005139,str. Independenței,46.9821302,28.8515821
325005143,Bulevardul Traian,46.9786576,28.8462786
461612418,str. Brâncuși,46.9891,28.8580206
325004921,Grenoble,46.9908161,28.8221045
325004923,str. Miorița,46.9925681,28.8185291
325005172,Policlinica Oncologică,46.9895907,28.826291
376339551,Campusul Academic,46.9948955,28.812802
376339555,Spitalul pentru copii nr.3,46.9857591,28.8320468
376339558,str. Costiujeni,46.9813742,28.8395871
4566543115,str. Ismail,47.0127423,28.8414037
312312334,str. Maria Dragan,47.021028,28.882904
321122223,str. Ciocana,47.019697, 28.882844
321122221,str. Fauresti,47.021841, 28.883099
321122222,str. Petrodava,47.025428, 28.883471
321122226,str. Școala profesională nr.7,47.029506, 28.884008
312312339,str. Maria Dragan,47.021134, 28.883168
321122250,str. Petrodava,47.025221, 28.883650
321122251,str. Fauresti,47.021853, 28.883250
321122252,str. Ciocana,47.019672, 28.882972
